{"paymentInformation":{"infoUrl":"https://help.nanopool.org/article/79-pool-information","paymentThreshold":{"min":1,"max":50},"paymentScheme":"PPLNS","fee":{"feeType":"Fixed","min":1,"max":314},"paymentInterval":1200},"locations":["FR","CA","US","SG","JP","AU"],"isAlive":true,"lastUpdated":"2019-08-21T10:05:22.129Z","url":"https://grin29.nanopool.org","slug":"1022","coin":{"name":"Grin (C29)","abbreviation":"GRIN","slug":"grin-c29","algorithm":{"name":"Cuckarood29","slug":"cuckarood29"}},"poolProfile":{"name":"Nanopool","slug":"nanopool"},"servers":[{"_id":"5d4fec7865e9ce4f309ec4f9","url":"grin29-eu1.nanopool.org","city":"Paris","country":"France","continent":"Europe","abbreviation":"FR","latitude":48.8566,"longitude":2.35222},{"_id":"5d4fecb765e9ce4f309ec4fa","url":"grin29-eu2.nanopool.org","city":"Roubaix","country":"France","continent":"Europe","abbreviation":"FR","latitude":50.6942,"longitude":3.1746},{"_id":"5d4fece165e9ce4f309ec4fb","url":"grin29-us-east1.nanopool.org","city":"Montreal","country":"Canada","continent":"North America","abbreviation":"CA","latitude":45.5088,"longitude":-73.5878},{"_id":"5d4fed0765e9ce4f309ec4fc","url":"grin29-us-west1.nanopool.org","city":"New Jersey","country":"United States","continent":"North America","abbreviation":"US","latitude":40.4127,"longitude":-74.2525},{"_id":"5d4fed3865e9ce4f309ec4fd","url":"grin29-asia1.nanopool.org","city":"Singapore","country":"Singapore","continent":"Asia","abbreviation":"SG","latitude":1.2897,"longitude":103.8501},{"_id":"5d4fed6265e9ce4f309ec4fe","url":"grin29-jp1.nanopool.org","city":"Tokyo","country":"Japan","continent":"Asia","abbreviation":"JP","latitude":35.7309,"longitude":139.8003},{"_id":"5d4fed8565e9ce4f309ec4ff","url":"grin29-au1.nanopool.org","city":"Sydney","country":"Australia","continent":"Australia","abbreviation":"AU","latitude":-33.8679,"longitude":151.2073}],"isMerged":false,"mergedCoins":[],"ports":[{"_id":"5d4fed9265e9ce4f309ec500","port":12111,"difficulty":"-","description":"Stratum Port"}],"announcements":[]}