{"paymentInformation":{"infoUrl":"https://help.nanopool.org/article/64-pool-information","paymentThreshold":{"min":0.5,"max":100},"paymentScheme":"PPLNS","fee":{"feeType":"Fixed","min":2,"max":314},"paymentInterval":1200},"locations":["FR","NL","CA","US","SG","JP","AU"],"isAlive":true,"lastUpdated":"2019-08-21T10:05:55.507Z","url":"https://pasc.nanopool.org","slug":"1594","coin":{"name":"PascalCoin","abbreviation":"PASC","slug":"pascalcoin","algorithm":{"name":"RandomHash","slug":"randomhash"}},"poolProfile":{"name":"Nanopool","slug":"nanopool"},"servers":[{"_id":"5d4feffe65e9ce4f309ec50c","url":"pasc-eu1.nanopool.org","city":"Roubaix","country":"France","continent":"Europe","abbreviation":"FR","latitude":50.6942,"longitude":3.1746},{"_id":"5d4ff02a65e9ce4f309ec50d","url":"pasc-eu2.nanopool.org","city":"Haarlem","country":"Netherlands","continent":"Europe","abbreviation":"NL","latitude":52.3808,"longitude":4.6368},{"_id":"5d4ff04c65e9ce4f309ec50e","url":"pasc-us-east1.nanopool.org","city":"Montreal","country":"Canada","continent":"North America","abbreviation":"CA","latitude":45.5088,"longitude":-73.5878},{"_id":"5d4ff07765e9ce4f309ec50f","url":"pasc-us-west1.nanopool.org","city":"New Jersey","country":"United States","continent":"North America","abbreviation":"US","latitude":40.4127,"longitude":-74.2525},{"_id":"5d4ff0ad65e9ce4f309ec510","url":"pasc-asia1.nanopool.org","city":"Singapore","country":"Singapore","continent":"Asia","abbreviation":"SG","latitude":1.2897,"longitude":103.8501},{"_id":"5d4ff0d265e9ce4f309ec511","url":"pasc-jp1.nanopool.org","city":"Tokyo","country":"Japan","continent":"Asia","abbreviation":"JP","latitude":35.6895,"longitude":139.6917},{"_id":"5d4ff0f365e9ce4f309ec512","url":"pasc-au1.nanopool.org","city":"Sydney","country":"Australia","continent":"Australia","abbreviation":"AU","latitude":-33.8679,"longitude":151.2073}],"mergedCoins":[],"ports":[{"_id":"5d4fef6e65e9ce4f309ec50b","port":15556,"difficulty":"16384","description":"Stratum Port"}]}