{"paymentInformation":{"infoUrl":"https://v3.antpool.com/home","paymentThreshold":{"min":0.001,"max":314},"paymentScheme":"PPLNS","fee":{"feeType":"Fixed","min":0,"max":314},"paymentInterval":86400},"locations":["US","RU","DE","HK","UAE","UK","CN"],"isAlive":true,"lastUpdated":"2019-08-21T09:58:50.227Z","url":"https://v3.antpool.com/home","slug":"212","coin":{"name":"Litecoin","abbreviation":"LTC","slug":"litecoin","algorithm":{"name":"Scrypt","slug":"scrypt"}},"poolProfile":{"numberOfSubPools":24,"name":"AntPool","slug":"antpool"},"servers":[{"_id":"5d5d0dbd8bf209574c0be334","url":"stratum-ltc.antpool.com","city":"-","country":"United States","continent":"North America","abbreviation":"US","latitude":39.3,"longitude":-100.02},{"_id":"5d5d0dbd8bf209574c0be335","url":"stratum-ltc.antpool.com","city":"-","country":"Russia","continent":"Asia","abbreviation":"RU","latitude":65.2,"longitude":97.7},{"_id":"5d5d0dbd8bf209574c0be336","url":"stratum-ltc.antpool.com","city":"-","country":"Germany","continent":"Europe","abbreviation":"DE","latitude":51.069,"longitude":10.349},{"_id":"5d5d0dbd8bf209574c0be337","url":"stratum-ltc.antpool.com","city":"Hong Kong","country":"Hong Kong","continent":"Asia","abbreviation":"HK","latitude":22.3533,"longitude":114.1837},{"_id":"5d5d0dbd8bf209574c0be338","url":"stratum-ltc.antpool.com","city":"Dubai","country":"United Arab Emirates","continent":"Asia","abbreviation":"UAE","latitude":25.0794,"longitude":55.1871},{"_id":"5d5d0dbd8bf209574c0be339","url":"stratum-ltc.antpool.com","city":"-","country":"United Kingdom","continent":"Europe","abbreviation":"UK","latitude":51.509,"longitude":-0.044},{"_id":"5d5d0dbd8bf209574c0be33a","url":"stratum-ltc.antpool.com","city":"Beijing","country":"China","continent":"Asia","abbreviation":"CN","latitude":39.9097,"longitude":116.3919},{"_id":"5d5d0dbd8bf209574c0be33b","url":"stratum-ltc.antpool.com","city":"Shenzhen","country":"China","continent":"Asia","abbreviation":"CN","latitude":22.5468,"longitude":114.0491},{"_id":"5d5d0dbd8bf209574c0be33c","url":"stratum-ltc.antpool.com","city":"Qingdao","country":"China","continent":"Asia","abbreviation":"CN","latitude":36.0624,"longitude":120.3806},{"_id":"5d5d0dbd8bf209574c0be33d","url":"stratum-ltc.antpool.com","city":"Hangzhou","country":"China","continent":"Asia","abbreviation":"CN","latitude":30.2591,"longitude":120.1987}],"mergedCoins":["5d486ecfd65f4b872821c20c"],"ports":[{"_id":"5d5d0dc58bf209574c0be33e","port":8888,"difficulty":"-","description":"Port 1"},{"_id":"5d5d0dcc8bf209574c0be33f","port":443,"difficulty":"-","description":"Port 2"},{"_id":"5d5d0dd38bf209574c0be340","port":25,"difficulty":"-","description":"Port 3"}]}