{"paymentInformation":{"infoUrl":"https://help.nanopool.org/article/49-pool-information","paymentThreshold":{"min":0.1,"max":100},"paymentScheme":"PPLNS","fee":{"feeType":"Fixed","min":1,"max":314},"paymentInterval":1200},"locations":["NL","FR","CA","US","SG","JP","AU"],"isAlive":true,"lastUpdated":"2019-08-21T10:05:10.229Z","url":"https://etc.nanopool.org","slug":"424","coin":{"numberOfSubPools":96,"name":"Ethereum Classic","abbreviation":"ETC","slug":"ethereum-classic","algorithm":{"name":"Ethash","slug":"ethash"}},"poolProfile":{"numberOfSubPools":8,"name":"Nanopool","slug":"nanopool"},"servers":[{"_id":"5d4feaba65e9ce4f309ec4f0","url":"etc-eu1.nanopool.org","city":"Amsterdam","country":"Netherlands","continent":"Europe","abbreviation":"NL","latitude":52.374,"longitude":4.8897},{"_id":"5d4feae565e9ce4f309ec4f1","url":"etc-eu2.nanopool.org","city":"Roubaix","country":"France","continent":"Europe","abbreviation":"FR","latitude":50.6942,"longitude":3.1746},{"_id":"5d4feb0e65e9ce4f309ec4f2","url":"etc-us-east1.nanopool.org","city":"Montreal","country":"Canada","continent":"North America","abbreviation":"CA","latitude":45.5088,"longitude":-73.5878},{"_id":"5d4feb3a65e9ce4f309ec4f3","url":"etc-us-west1.nanopool.org","city":"New Jersey","country":"United States","continent":"North America","abbreviation":"US","latitude":40.4127,"longitude":-74.2525},{"_id":"5d4feb7065e9ce4f309ec4f4","url":"etc-asia1.nanopool.org","city":"Singapore","country":"Singapore","continent":"Asia","abbreviation":"SG","latitude":1.2897,"longitude":103.8501},{"_id":"5d4feb8e65e9ce4f309ec4f5","url":"etc-jp1.nanopool.org","city":"Tokyo","country":"Japan","continent":"Asia","abbreviation":"JP","latitude":35.6895,"longitude":139.6917},{"_id":"5d4febc165e9ce4f309ec4f6","url":"etc-au1.nanopool.org","city":"Sydney","country":"Australia","continent":"Australia","abbreviation":"AU","latitude":-33.8679,"longitude":151.2073}],"mergedCoins":[],"ports":[{"_id":"5d4febd265e9ce4f309ec4f7","port":19999,"difficulty":"-","description":"Stratum Port"},{"_id":"5d4febe065e9ce4f309ec4f8","port":18888,"difficulty":"-","description":"Getwork Port"}]}