{"paymentInformation":{"infoUrl":"http://comining.io","paymentThreshold":{"min":0.05,"max":100},"paymentScheme":"PPLNT","fee":{"feeType":"Fixed","min":1,"max":314},"paymentInterval":0},"locations":["RU","DE","US","SG","JP"],"isAlive":true,"lastUpdated":"2019-08-07T08:13:16.073Z","url":"http://comining.io/?ref=AFx9pURxsWfsqiVXF5s5f8g","slug":"432","coin":{"numberOfSubPools":96,"name":"Ethereum Classic","abbreviation":"ETC","slug":"ethereum-classic","algorithm":{"name":"Ethash","slug":"ethash"}},"poolProfile":{"numberOfSubPools":90,"name":"Comining.io","slug":"comining-io"},"servers":[{"_id":"5d55937dfd06ad0e00bd089a","url":"s-ru.comining.io","city":"Moscow","country":"Russia","continent":"Asia","abbreviation":"RU","latitude":55.7522,"longitude":37.6156},{"_id":"5d5593d2fd06ad0e00bd08f4","url":"s-eu.comining.io","city":"Sachsen","country":"Germany","continent":"Europe","abbreviation":"DE","latitude":50.4779,"longitude":12.3713},{"_id":"5d559429fd06ad0e00bd094e","url":"s-us.comining.io","city":"Texas","country":"United States","continent":"North America","abbreviation":"US","latitude":32.7831,"longitude":-96.8067},{"_id":"5d559456fd06ad0e00bd09a8","url":"s-sg.comining.io","city":"Singapore","country":"Singapore","continent":"Asia","abbreviation":"SG","latitude":1.2997,"longitude":103.855},{"_id":"5d559482fd06ad0e00bd0a02","url":"s-jp.comining.io","city":"Tokyo","country":"Japan","continent":"Asia","abbreviation":"JP","latitude":35.709,"longitude":139.732}],"mergedCoins":[],"ports":[{"_id":"5d5594fd6afbfd3f84cdbfdf","port":9999,"difficulty":"5G","description":"PPLNT / PROP"},{"_id":"5d55951b6afbfd3f84cdc039","port":9999,"difficulty":"10G","description":"SOLO"}]}