{"paymentInformation":{"infoUrl":"https://v3.antpool.com/home","paymentThreshold":{"min":0.001,"max":314},"paymentScheme":"PPS+","fee":{"feeType":"Fixed","min":4,"max":314},"paymentInterval":86400},"locations":["US","RU","DE","HK","UAE","UK","CN"],"isAlive":true,"lastUpdated":"2019-08-21T09:56:47.384Z","url":"https://v3.antpool.com/home","slug":"47","coin":{"name":"Bitcoin","abbreviation":"BTC","slug":"bitcoin","algorithm":{"name":"SHA 256","slug":"sha-256"}},"poolProfile":{"numberOfSubPools":24,"name":"AntPool","slug":"antpool"},"servers":[{"_id":"5d5ce876e7648b32e4320fae","url":"stratum.antpool.com","city":"-","country":"United States","continent":"North America","abbreviation":"US","latitude":39.3,"longitude":-100.02},{"_id":"5d5ce8b3e7648b32e4320faf","url":"stratum.antpool.com","city":"-","country":"Russia","continent":"Asia","abbreviation":"RU","latitude":65.2,"longitude":97.7},{"_id":"5d5ce8dfe7648b32e4320fb0","url":"stratum.antpool.com","city":"-","country":"Germany","continent":"Europe","abbreviation":"DE","latitude":51.069,"longitude":10.349},{"_id":"5d5ce919e7648b32e4320fb1","url":"stratum.antpool.com","city":"Hong Kong","country":"Hong Kong","continent":"Asia","abbreviation":"HK","latitude":22.3533,"longitude":114.1837},{"_id":"5d5ce964e7648b32e4320fb2","url":"stratum.antpool.com","city":"Dubai","country":"United Arab Emirates","continent":"Asia","abbreviation":"UAE","latitude":25.0794,"longitude":55.1871},{"_id":"5d5ce9bce7648b32e4320fb3","url":"stratum.antpool.com","city":"-","country":"United Kingdom","continent":"Europe","abbreviation":"UK","latitude":51.509,"longitude":-0.044},{"_id":"5d5ce9e0e7648b32e4320fb4","url":"stratum.antpool.com","city":"Beijing","country":"China","continent":"Asia","abbreviation":"CN","latitude":39.9097,"longitude":116.3919},{"_id":"5d5cea0ee7648b32e4320fb5","url":"stratum.antpool.com","city":"Shenzhen","country":"China","continent":"Asia","abbreviation":"CN","latitude":22.5468,"longitude":114.0491},{"_id":"5d5cea42e7648b32e4320fb6","url":"stratum.antpool.com","city":"Qingdao","country":"China","continent":"Asia","abbreviation":"CN","latitude":36.0624,"longitude":120.3806},{"_id":"5d5cea7ce7648b32e4320fb7","url":"stratum.antpool.com","city":"Hangzhou","country":"China","continent":"Asia","abbreviation":"CN","latitude":30.2591,"longitude":120.1987}],"mergedCoins":["5d5ce61ee7648b32e4320fa3"],"ports":[{"_id":"5d5ce810e7648b32e4320fab","port":3333,"difficulty":"-","description":"Port 1"},{"_id":"5d5ce81fe7648b32e4320fac","port":443,"difficulty":"-","description":"Port 2"},{"_id":"5d5ce829e7648b32e4320fad","port":25,"difficulty":"-","description":"Port 3"}]}