{"paymentInformation":{"infoUrl":"https://v3.antpool.com/home","paymentThreshold":{"min":1,"max":314},"paymentScheme":"PPS","fee":{"feeType":"Fixed","min":3,"max":314},"paymentInterval":86400},"locations":["US","RU","DE","HK","UAE","UK","CN"],"isAlive":true,"lastUpdated":"2019-08-21T09:57:52.466Z","url":"https://v3.antpool.com/home","slug":"563","coin":{"name":"Bytom","abbreviation":"BTM","slug":"bytom","algorithm":{"name":"Tensority","slug":"tensority"}},"poolProfile":{"numberOfSubPools":24,"name":"AntPool","slug":"antpool"},"servers":[{"_id":"5d5d11ef8bf209574c0be3a9","url":"stratum-btm.antpool.com","city":"-","country":"United States","continent":"North America","abbreviation":"US","latitude":39.3,"longitude":-100.02},{"_id":"5d5d11ef8bf209574c0be3aa","url":"stratum-btm.antpool.com","city":"-","country":"Russia","continent":"Asia","abbreviation":"RU","latitude":65.2,"longitude":97.7},{"_id":"5d5d11ef8bf209574c0be3ab","url":"stratum-btm.antpool.com","city":"-","country":"Germany","continent":"Europe","abbreviation":"DE","latitude":51.069,"longitude":10.349},{"_id":"5d5d11ef8bf209574c0be3ac","url":"stratum-btm.antpool.com","city":"Hong Kong","country":"Hong Kong","continent":"Asia","abbreviation":"HK","latitude":22.3533,"longitude":114.1837},{"_id":"5d5d11ef8bf209574c0be3ad","url":"stratum-btm.antpool.com","city":"Dubai","country":"United Arab Emirates","continent":"Asia","abbreviation":"UAE","latitude":25.0794,"longitude":55.1871},{"_id":"5d5d11ef8bf209574c0be3ae","url":"stratum-btm.antpool.com","city":"-","country":"United Kingdom","continent":"Europe","abbreviation":"UK","latitude":51.509,"longitude":-0.044},{"_id":"5d5d11ef8bf209574c0be3af","url":"stratum-btm.antpool.com","city":"Beijing","country":"China","continent":"Asia","abbreviation":"CN","latitude":39.9097,"longitude":116.3919},{"_id":"5d5d11ef8bf209574c0be3b0","url":"stratum-btm.antpool.com","city":"Shenzhen","country":"China","continent":"Asia","abbreviation":"CN","latitude":22.5468,"longitude":114.0491},{"_id":"5d5d11ef8bf209574c0be3b1","url":"stratum-btm.antpool.com","city":"Qingdao","country":"China","continent":"Asia","abbreviation":"CN","latitude":36.0624,"longitude":120.3806},{"_id":"5d5d11ef8bf209574c0be3b2","url":"stratum-btm.antpool.com","city":"Hangzhou","country":"China","continent":"Asia","abbreviation":"CN","latitude":30.2591,"longitude":120.1987}],"isMerged":false,"mergedCoins":[],"ports":[{"_id":"5d5d12238bf209574c0be3b3","port":6666,"difficulty":"-","description":"Port 1"},{"_id":"5d5d122c8bf209574c0be3b4","port":443,"difficulty":"-","description":"Port 2"},{"_id":"5d5d12318bf209574c0be3b5","port":25,"difficulty":"-","description":"Port 3"}],"announcements":[]}